,ZIP,Latitude,Longitude,City,State,State Name,Population,Density,County,County Population,County Cases,County Deaths,Cases,Deaths,ZHVI,Arts & Entertainment,Event,Nightlife Spot,Outdoors & Recreation,College & University,Travel & Transport,Professional & Other Places,Food,Shop & Service,Residence,School,Medical Center,Hospital,Spiritual Center
0,98001,47.309979999999996,-122.26521000000001,Auburn,WA,Washington,32625,663,King,2175990,11284,628.0,169.0,9.0,438199.0,3,0,1,12,0,1,19,14,104,4,0,4,0,6
1,98002,47.30836,-122.21638999999999,Auburn,WA,Washington,34508,1699,King,2175990,11284,628.0,179.0,10.0,360468.0,6,0,6,19,7,16,149,58,160,4,10,132,6,12
2,98003,47.30513,-122.31508000000001,Federal Way,WA,Washington,49860,1466,King,2175990,11284,628.0,259.0,14.0,395000.0,6,1,9,43,8,29,178,117,191,15,20,196,17,10
3,98004,47.618840000000006,-122.20595,Bellevue,WA,Washington,35034,1533,King,2175990,11284,628.0,182.0,10.0,1642862.0,14,4,39,110,15,89,167,103,216,49,25,191,29,10
4,98005,47.614779999999996,-122.16861999999999,Bellevue,WA,Washington,18765,911,King,2175990,11284,628.0,97.0,5.0,1107918.0,10,2,18,92,18,63,147,82,131,27,48,173,26,11
5,98006,47.55748,-122.15081,Bellevue,WA,Washington,37769,1312,King,2175990,11284,628.0,196.0,11.0,1066697.0,2,0,5,17,5,3,31,7,20,5,15,7,0,5
6,98007,47.61446,-122.14381000000002,Bellevue,WA,Washington,29174,2191,King,2175990,11284,628.0,151.0,8.0,758797.0,11,0,8,58,14,30,125,121,192,16,46,138,6,19
7,98008,47.605270000000004,-122.11098,Bellevue,WA,Washington,25539,1707,King,2175990,11284,628.0,132.0,7.0,889388.0,6,0,4,17,4,1,35,17,31,3,8,10,0,7
8,98010,47.31308,-122.00053999999999,Black Diamond,WA,Washington,5485,129,King,2175990,11284,628.0,28.0,2.0,492076.0,1,0,4,4,0,0,10,8,13,1,2,4,0,2
9,98011,47.753370000000004,-122.20191000000001,Bothell,WA,Washington,33109,1376,King,2175990,11284,628.0,172.0,10.0,696930.0,13,0,16,32,21,15,118,40,117,11,18,63,3,11
10,98012,47.84151,-122.19908999999998,Bothell,WA,Washington,64417,1290,Snohomish,768219,3788,178.0,318.0,15.0,632145.0,4,1,4,16,5,5,77,37,106,14,10,34,0,5
11,98014,47.66122,-121.89445,Carnation,WA,Washington,6911,58,King,2175990,11284,628.0,36.0,2.0,690116.0,3,0,1,3,0,1,6,4,2,0,1,0,0,2
12,98019,47.73961,-121.84941,Duvall,WA,Washington,11811,55,King,2175990,11284,628.0,61.0,3.0,656970.0,0,0,0,1,0,0,0,0,0,0,0,0,0,0
13,98020,47.80022,-122.37266000000001,Edmonds,WA,Washington,20322,1365,Snohomish,768219,3788,178.0,100.0,5.0,825029.0,7,1,16,38,2,16,86,47,181,6,6,28,2,10
14,98021,47.79257,-122.20818,Bothell,WA,Washington,30753,1021,Snohomish,768219,3788,178.0,152.0,7.0,708048.0,5,1,7,16,3,12,134,68,145,4,15,98,5,1
15,98022,47.15033,-121.65485,Enumclaw,WA,Washington,21218,20,King,2175990,11284,628.0,110.0,6.0,457895.0,0,0,2,0,0,0,2,1,3,0,0,0,0,0
16,98023,47.30877,-122.3627,Federal Way,WA,Washington,50283,1776,King,2175990,11284,628.0,261.0,15.0,435367.0,2,0,4,9,1,3,43,27,71,6,7,17,1,6
17,98024,47.57493,-121.90111999999999,Fall City,WA,Washington,6658,92,King,2175990,11284,628.0,35.0,2.0,764883.0,2,0,4,9,0,1,9,6,18,0,3,5,1,2
18,98026,47.83546,-122.33171999999999,Edmonds,WA,Washington,36729,1490,Snohomish,768219,3788,178.0,181.0,9.0,598799.0,5,0,4,10,7,2,78,26,112,4,12,41,2,7
19,98027,47.50139,-121.99933,Issaquah,WA,Washington,30250,181,King,2175990,11284,628.0,157.0,9.0,783347.0,0,0,0,6,0,0,1,0,4,0,0,1,0,0
20,98028,47.75423,-122.24755,Kenmore,WA,Washington,22516,1399,King,2175990,11284,628.0,117.0,6.0,712240.0,4,1,10,20,5,11,72,24,81,9,6,39,2,6
21,98029,47.558479999999996,-122.00546000000001,Issaquah,WA,Washington,28727,1051,King,2175990,11284,628.0,149.0,8.0,769814.0,7,0,4,36,2,4,61,18,53,10,13,23,1,5
22,98030,47.36821,-122.19736,Kent,WA,Washington,37808,1829,King,2175990,11284,628.0,196.0,11.0,436702.0,5,0,5,8,4,4,76,25,102,7,6,46,2,7
23,98031,47.404920000000004,-122.19561999999999,Kent,WA,Washington,36750,1883,King,2175990,11284,628.0,191.0,11.0,464023.0,4,0,8,6,2,4,31,28,56,11,6,11,0,5
24,98032,47.392340000000004,-122.25871000000001,Kent,WA,Washington,38016,781,King,2175990,11284,628.0,197.0,11.0,395874.0,7,0,6,25,4,9,83,34,158,9,4,30,1,2
25,98033,47.67613,-122.19232,Kirkland,WA,Washington,39075,1440,King,2175990,11284,628.0,203.0,11.0,1075187.0,11,2,17,62,7,25,98,84,193,14,22,69,2,13
26,98034,47.71578,-122.21582,Kirkland,WA,Washington,43119,1723,King,2175990,11284,628.0,224.0,12.0,697966.0,8,0,5,27,5,21,85,42,86,16,16,44,3,4
27,98036,47.81113,-122.28161999999999,Lynnwood,WA,Washington,39766,1438,Snohomish,768219,3788,178.0,196.0,9.0,564835.0,8,1,6,30,8,31,158,69,137,11,16,201,3,10
28,98037,47.839220000000005,-122.28541000000001,Lynnwood,WA,Washington,29402,1803,Snohomish,768219,3788,178.0,145.0,7.0,548550.0,4,1,7,30,4,22,153,111,173,15,13,197,3,11
29,98038,47.41741,-121.95374,Maple Valley,WA,Washington,35568,181,King,2175990,11284,628.0,184.0,10.0,525513.0,0,0,2,4,0,0,2,0,2,0,0,0,0,0
30,98039,47.63306,-122.23962,Medina,WA,Washington,3260,796,King,2175990,11284,628.0,17.0,1.0,3009226.0,0,0,0,16,1,6,8,3,8,1,3,1,0,2
31,98040,47.56612,-122.23198000000001,Mercer Island,WA,Washington,25492,1374,King,2175990,11284,628.0,132.0,7.0,1650106.0,7,0,1,19,7,4,54,8,35,4,12,21,1,6
32,98042,47.366240000000005,-122.11716000000001,Kent,WA,Washington,47927,593,King,2175990,11284,628.0,249.0,14.0,478205.0,1,0,4,5,1,2,86,46,123,7,8,54,4,6
33,98043,47.792,-122.30742,Mountlake Terrace,WA,Washington,21126,1883,Snohomish,768219,3788,178.0,104.0,5.0,476422.0,5,1,7,30,3,13,77,45,135,15,13,56,4,10
34,98045,47.39159,-121.63471000000001,North Bend,WA,Washington,14795,16,King,2175990,11284,628.0,77.0,4.0,621380.0,0,0,0,0,0,0,0,0,0,0,0,0,0,0
35,98047,47.26208,-122.24756000000001,Pacific,WA,Washington,7023,1014,King,2175990,11284,628.0,36.0,2.0,378999.0,1,0,4,10,1,3,31,18,60,3,2,8,2,8
36,98050,47.54399,-121.94041000000001,Preston,WA,Washington,552,38,King,2175990,11284,628.0,3.0,0.0,875314.0,1,0,0,8,0,0,5,1,5,1,0,2,0,1
37,98051,47.34073,-121.88743000000001,Ravensdale,WA,Washington,4333,25,King,2175990,11284,628.0,22.0,1.0,610090.0,0,0,0,2,0,0,0,0,0,0,0,0,0,0
38,98052,47.681309999999996,-122.12031,Redmond,WA,Washington,67779,1122,King,2175990,11284,628.0,351.0,20.0,878563.0,10,0,15,100,5,34,161,74,196,29,38,197,10,14
39,98053,47.66565,-122.01947,Redmond,WA,Washington,22175,256,King,2175990,11284,628.0,115.0,6.0,925958.0,1,0,1,12,2,0,5,1,3,2,1,1,0,3
40,98055,47.44696,-122.20142,Renton,WA,Washington,24231,1765,King,2175990,11284,628.0,126.0,7.0,464577.0,9,0,11,17,3,6,140,48,136,9,9,163,13,9
41,98056,47.51287,-122.18958,Renton,WA,Washington,35373,1666,King,2175990,11284,628.0,183.0,10.0,587477.0,4,0,4,23,5,15,67,42,82,10,5,29,1,5
42,98057,47.47142,-122.22032,Renton,WA,Washington,13362,672,King,2175990,11284,628.0,69.0,4.0,438533.0,8,1,16,36,11,34,109,74,173,13,13,68,3,6
43,98058,47.44184,-122.1244,Renton,WA,Washington,43523,855,King,2175990,11284,628.0,226.0,13.0,505744.0,0,0,1,6,3,1,23,4,22,6,5,8,0,4
44,98059,47.50222,-122.12100000000001,Renton,WA,Washington,38362,667,King,2175990,11284,628.0,199.0,11.0,641134.0,2,0,1,8,3,0,10,4,19,1,1,3,0,4
45,98065,47.5846,-121.79163,Snoqualmie,WA,Washington,15548,67,King,2175990,11284,628.0,81.0,4.0,720518.0,0,0,0,0,0,0,0,0,0,0,0,0,0,0
46,98068,47.44077,-121.34971999999999,Snoqualmie Pass,WA,Washington,392,1,Kittitas,44786,162,0.0,1.0,0.0,513419.0,0,0,0,0,0,0,0,0,0,0,0,0,0,0
47,98070,47.41219,-122.4726,Vashon,WA,Washington,10036,112,King,2175990,11284,628.0,52.0,3.0,687333.0,2,0,0,7,0,0,6,4,5,0,1,4,0,1
48,98072,47.76117,-122.13213999999999,Woodinville,WA,Washington,24213,476,King,2175990,11284,628.0,126.0,7.0,807273.0,7,0,21,24,5,6,102,42,109,5,11,55,6,3
49,98074,47.622679999999995,-122.04325,Sammamish,WA,Washington,28395,932,King,2175990,11284,628.0,147.0,8.0,965900.0,6,0,2,16,1,5,64,19,82,7,16,34,0,3
50,98075,47.58655,-122.03848,Sammamish,WA,Washington,23587,844,King,2175990,11284,628.0,122.0,7.0,1109967.0,1,0,1,22,3,6,60,6,31,4,13,26,1,8
51,98077,47.75292,-122.05826,Woodinville,WA,Washington,14151,303,King,2175990,11284,628.0,73.0,4.0,949779.0,2,0,0,3,1,1,17,4,16,0,10,3,1,3
52,98087,47.86298,-122.26638,Lynnwood,WA,Washington,39221,2079,Snohomish,768219,3788,178.0,193.0,9.0,515473.0,8,0,5,18,2,17,77,52,108,15,5,35,1,8
53,98092,47.28765,-122.12876999999999,Auburn,WA,Washington,45739,346,King,2175990,11284,628.0,237.0,13.0,470533.0,0,0,0,3,0,0,2,0,4,0,0,0,0,0
54,98101,47.611290000000004,-122.33453999999999,Seattle,WA,Washington,12792,7614,King,2175990,11284,628.0,66.0,4.0,668323.0,140,4,215,198,115,202,223,250,215,121,83,210,69,54
55,98102,47.63632,-122.32213,Seattle,WA,Washington,25448,6229,King,2175990,11284,628.0,132.0,7.0,729612.0,29,2,48,144,64,118,149,81,161,43,39,159,38,13
56,98103,47.673320000000004,-122.34253999999999,Seattle,WA,Washington,51377,3816,King,2175990,11284,628.0,266.0,15.0,829755.0,74,1,55,104,9,83,102,134,125,15,38,111,7,30
57,98104,47.601690000000005,-122.32848999999999,Seattle,WA,Washington,14144,6534,King,2175990,11284,628.0,73.0,4.0,626131.0,113,4,164,148,110,173,197,243,198,80,70,198,62,49
58,98105,47.66068,-122.28403,Seattle,WA,Washington,48861,4109,King,2175990,11284,628.0,253.0,14.0,1022457.0,7,0,12,61,90,39,98,48,150,6,19,108,18,12
59,98106,47.543490000000006,-122.35434,Seattle,WA,Washington,26171,1604,King,2175990,11284,628.0,136.0,8.0,550792.0,3,0,6,24,13,21,68,28,53,4,6,12,1,2
60,98107,47.667640000000006,-122.37799999999999,Seattle,WA,Washington,25720,3717,King,2175990,11284,628.0,133.0,7.0,793140.0,42,1,84,107,8,79,133,113,179,20,28,183,7,21
61,98108,47.54126,-122.31295,Seattle,WA,Washington,23980,1154,King,2175990,11284,628.0,124.0,7.0,619853.0,11,1,26,24,3,40,92,62,143,4,10,10,0,8
62,98109,47.63159,-122.34416999999999,Seattle,WA,Washington,29154,4012,King,2175990,11284,628.0,151.0,8.0,747650.0,90,6,89,186,35,146,189,184,151,83,50,115,8,26
63,98110,47.644690000000004,-122.54353,Bainbridge Island,WA,Washington,24060,322,Kitsap,262475,261,2.0,24.0,0.0,880063.0,2,2,3,12,9,1,28,5,14,0,4,14,0,5
64,98112,47.63394,-122.28885,Seattle,WA,Washington,25426,2575,King,2175990,11284,628.0,132.0,7.0,1279778.0,9,0,9,66,7,36,63,39,72,4,20,49,2,5
65,98115,47.685,-122.28216,Seattle,WA,Washington,53431,2709,King,2175990,11284,628.0,277.0,15.0,848815.0,7,0,10,56,5,13,91,45,67,2,21,31,4,15
66,98116,47.57397,-122.39506999999999,Seattle,WA,Washington,26448,2904,King,2175990,11284,628.0,137.0,8.0,807594.0,15,1,34,75,5,32,149,102,204,19,16,138,7,12
67,98117,47.6882,-122.38148000000001,Seattle,WA,Washington,35111,3143,King,2175990,11284,628.0,182.0,10.0,840446.0,14,2,30,70,3,31,72,101,106,6,23,54,5,21
68,98118,47.54249,-122.26883000000001,Seattle,WA,Washington,48436,2640,King,2175990,11284,628.0,251.0,14.0,625155.0,3,1,7,34,2,10,86,49,84,2,12,28,1,17
69,98119,47.63995,-122.37005,Seattle,WA,Washington,25710,3333,King,2175990,11284,628.0,133.0,7.0,972426.0,27,1,47,99,42,109,101,125,141,19,26,99,6,18
70,98121,47.61541,-122.34669,Seattle,WA,Washington,18140,10982,King,2175990,11284,628.0,94.0,5.0,625088.0,123,3,151,174,66,198,206,226,218,110,57,187,28,37
71,98122,47.611509999999996,-122.2918,Seattle,WA,Washington,38620,5251,King,2175990,11284,628.0,200.0,11.0,807183.0,34,2,38,101,54,104,100,95,121,31,45,82,14,27
72,98125,47.716359999999995,-122.29815,Seattle,WA,Washington,42475,2654,King,2175990,11284,628.0,220.0,12.0,676590.0,4,0,10,37,6,22,120,62,143,10,29,84,1,10
73,98126,47.54768,-122.37442,Seattle,WA,Washington,24329,2610,King,2175990,11284,628.0,126.0,7.0,646185.0,5,0,29,66,14,42,127,72,190,21,14,101,8,8
74,98133,47.73995,-122.34421,Seattle,WA,Washington,47247,2425,King,2175990,11284,628.0,245.0,14.0,611661.0,16,0,7,43,19,30,110,55,179,15,20,42,4,11
75,98134,47.57783,-122.33743,Seattle,WA,Washington,804,74,King,2175990,11284,628.0,4.0,0.0,437718.0,20,2,38,48,5,78,85,90,139,4,5,15,0,6
76,98136,47.53676,-122.38986000000001,Seattle,WA,Washington,16607,2481,King,2175990,11284,628.0,86.0,5.0,758818.0,18,0,10,39,3,20,70,26,77,5,9,32,1,6
77,98144,47.58596,-122.29236999999999,Seattle,WA,Washington,31845,3054,King,2175990,11284,628.0,165.0,9.0,748133.0,10,3,11,75,8,52,104,80,119,12,18,68,4,15
78,98146,47.50009,-122.35752,Seattle,WA,Washington,28022,2149,King,2175990,11284,628.0,145.0,8.0,528483.0,8,1,10,23,6,13,56,60,101,10,14,16,3,9
79,98148,47.443740000000005,-122.32507,Seattle,WA,Washington,11761,1255,King,2175990,11284,628.0,61.0,3.0,462176.0,4,0,12,14,4,127,110,58,119,4,10,101,4,8
81,98155,47.75593,-122.30025,Seattle,WA,Washington,35028,1676,King,2175990,11284,628.0,182.0,10.0,624851.0,10,0,8,15,5,10,59,20,71,18,14,22,1,7
83,98164,47.605959999999996,-122.33203,Seattle,WA,Washington,155,15385,King,2175990,11284,628.0,1.0,0.0,763857.0,116,3,195,171,111,200,221,250,216,114,77,211,67,54
84,98166,47.45281,-122.3501,Seattle,WA,Washington,21212,1386,King,2175990,11284,628.0,110.0,6.0,627136.0,3,0,13,28,4,4,144,54,166,7,18,165,12,11
85,98168,47.48887,-122.30123,Seattle,WA,Washington,32738,1465,King,2175990,11284,628.0,170.0,9.0,439933.0,6,0,3,18,2,14,80,19,87,5,6,15,3,4
87,98177,47.742259999999995,-122.37078999999999,Seattle,WA,Washington,21619,1297,King,2175990,11284,628.0,112.0,6.0,822410.0,1,0,3,16,15,9,25,35,58,7,7,11,1,2
88,98178,47.4993,-122.24708000000001,Seattle,WA,Washington,27280,1920,King,2175990,11284,628.0,141.0,8.0,501695.0,7,0,8,6,2,2,40,10,45,3,10,6,0,5
89,98188,47.44823,-122.27313999999998,Seattle,WA,Washington,24935,1185,King,2175990,11284,628.0,129.0,7.0,433249.0,3,0,14,22,6,60,78,72,183,14,13,35,2,5
90,98195,47.64925,-122.30918999999999,Seattle,WA,Washington,51,0,King,2175990,11284,628.0,0.0,0.0,,32,0,34,106,155,112,122,121,176,37,40,142,33,23
91,98198,47.39462,-122.31121,Seattle,WA,Washington,38089,1733,King,2175990,11284,628.0,198.0,11.0,429101.0,10,1,5,24,21,16,88,48,116,8,10,40,4,10
92,98199,47.65142,-122.4027,Seattle,WA,Washington,21954,1815,King,2175990,11284,628.0,114.0,6.0,1011305.0,5,0,11,59,5,42,54,37,65,7,8,23,2,6
93,98201,47.99334,-122.21327,Everett,WA,Washington,29484,1528,Snohomish,768219,3788,178.0,145.0,7.0,386459.0,10,0,15,38,24,26,105,86,166,13,9,116,19,13
94,98203,47.943540000000006,-122.23321000000001,Everett,WA,Washington,35603,1240,Snohomish,768219,3788,178.0,176.0,8.0,442516.0,6,0,8,12,2,6,57,51,102,16,6,17,0,3
95,98204,47.90132,-122.26091000000001,Everett,WA,Washington,42882,1894,Snohomish,768219,3788,178.0,211.0,10.0,379013.0,7,0,4,17,7,25,77,36,115,14,7,20,2,7
96,98207,47.98805,-122.22294,Everett,WA,Washington,1397,1339,Snohomish,768219,3788,178.0,7.0,0.0,,9,0,14,35,4,18,107,79,193,11,6,135,16,10
97,98208,47.901790000000005,-122.18651000000001,Everett,WA,Washington,57306,1236,Snohomish,768219,3788,178.0,283.0,13.0,508908.0,5,0,6,6,2,2,71,24,62,4,7,43,1,5
98,98220,48.68497,-122.19691999999999,Acme,WA,Washington,861,12,Whatcom,214438,685,40.0,3.0,0.0,367305.0,0,0,0,0,0,0,0,1,0,0,0,0,0,0
99,98221,48.503209999999996,-122.65491999999999,Anacortes,WA,Washington,21411,149,Skagit,126102,567,16.0,96.0,3.0,516178.0,1,0,1,3,0,13,8,3,8,1,1,3,0,1
100,98222,48.56085,-122.80263000000001,Blakely Island,WA,Washington,71,2,San Juan,16340,20,0.0,0.0,0.0,630246.0,0,0,0,1,0,1,0,0,0,0,0,0,0,0
101,98223,48.21049,-121.95173999999999,Arlington,WA,Washington,42880,50,Snohomish,768219,3788,178.0,211.0,10.0,447133.0,0,0,0,2,0,0,0,0,0,0,0,0,0,0
102,98224,47.66382,-121.51299999999999,Baring,WA,Washington,255,1,King,2175990,11284,628.0,1.0,0.0,329121.0,0,0,0,0,0,0,0,0,0,0,0,0,0,0
103,98225,48.75309,-122.50148999999999,Bellingham,WA,Washington,49877,1411,Whatcom,214438,685,40.0,159.0,9.0,479640.0,26,1,46,27,31,11,81,60,167,5,9,61,1,11
104,98226,48.8006,-122.42745,Bellingham,WA,Washington,44406,149,Whatcom,214438,685,40.0,142.0,8.0,466743.0,2,0,0,3,0,2,6,5,23,0,2,2,0,0
105,98229,48.69551,-122.41048,Bellingham,WA,Washington,32211,239,Whatcom,214438,685,40.0,103.0,6.0,491725.0,1,0,0,3,0,0,1,0,2,0,0,0,0,0
106,98230,48.95409,-122.71063000000001,Blaine,WA,Washington,17056,139,Whatcom,214438,685,40.0,54.0,3.0,383379.0,1,0,0,3,0,1,3,7,1,0,0,1,1,1
107,98232,48.56535,-122.41566,Bow,WA,Washington,4542,29,Skagit,126102,567,16.0,20.0,1.0,562211.0,0,0,0,2,0,0,4,5,6,0,1,1,0,0
108,98233,48.50395,-122.35082,Burlington,WA,Washington,15415,170,Skagit,126102,567,16.0,69.0,2.0,368756.0,0,0,0,3,0,3,4,5,9,0,1,1,0,0
109,98235,48.46475,-122.23331999999999,Clearlake,WA,Washington,98,1298,Skagit,126102,567,16.0,0.0,0.0,343430.0,0,0,1,2,0,0,7,1,1,0,0,3,0,1
110,98236,47.95814,-122.40473999999999,Clinton,WA,Washington,6245,96,Island,81636,199,12.0,15.0,1.0,544453.0,0,0,0,2,0,0,1,1,2,0,0,0,0,0
111,98237,48.59328,-121.68518999999999,Concrete,WA,Washington,4361,5,Skagit,126102,567,16.0,20.0,1.0,265366.0,0,0,0,0,0,0,0,0,0,0,0,0,0,0
113,98239,48.19161,-122.66085,Coupeville,WA,Washington,7273,88,Island,81636,199,12.0,18.0,1.0,442932.0,1,0,0,4,0,1,2,0,0,0,0,2,0,0
114,98240,48.94729,-122.62131000000001,Custer,WA,Washington,3132,58,Whatcom,214438,685,40.0,10.0,1.0,471474.0,0,0,0,0,0,0,0,1,2,0,0,0,0,0
115,98241,48.22367,-121.32776000000001,Darrington,WA,Washington,1921,2,Snohomish,768219,3788,178.0,9.0,0.0,291610.0,0,0,0,0,0,0,0,0,0,0,0,0,0,0
116,98243,48.62096,-123.00504,Deer Harbor,WA,Washington,652,39,San Juan,16340,20,0.0,1.0,0.0,,0,0,0,3,0,5,1,1,0,0,0,0,0,0
117,98244,48.800059999999995,-121.9544,Deming,WA,Washington,2783,3,Whatcom,214438,685,40.0,9.0,1.0,292089.0,0,0,0,0,0,0,0,0,0,0,0,0,0,0
118,98245,48.66637,-122.91023999999999,Eastsound,WA,Washington,3646,45,San Juan,16340,20,0.0,4.0,0.0,610472.0,1,0,0,4,0,2,1,0,2,0,0,0,0,0
119,98247,48.907990000000005,-122.32248,Everson,WA,Washington,9433,55,Whatcom,214438,685,40.0,30.0,2.0,436952.0,0,0,1,3,0,1,8,3,7,0,1,5,0,1
120,98248,48.8659,-122.62,Ferndale,WA,Washington,24475,122,Whatcom,214438,685,40.0,78.0,5.0,431860.0,0,0,2,0,0,0,12,2,7,0,5,0,0,5
121,98249,48.01818,-122.5391,Freeland,WA,Washington,4040,111,Island,81636,199,12.0,10.0,1.0,534158.0,2,0,4,7,1,2,13,10,23,3,0,7,0,2
122,98250,48.55815,-123.0915,Friday Harbor,WA,Washington,8024,48,San Juan,16340,20,0.0,10.0,0.0,645372.0,0,0,0,1,0,1,1,0,1,0,0,0,0,0
123,98251,47.90265,-121.54531000000001,Gold Bar,WA,Washington,3846,12,Snohomish,768219,3788,178.0,19.0,1.0,341971.0,0,0,0,0,0,0,0,0,0,0,0,0,0,0
124,98252,48.07307,-121.6895,Granite Falls,WA,Washington,9603,13,Snohomish,768219,3788,178.0,47.0,2.0,388010.0,0,0,0,1,0,0,0,0,0,0,0,0,0,0
125,98253,48.08535,-122.57687,Greenbank,WA,Washington,1711,58,Island,81636,199,12.0,4.0,0.0,546392.0,0,0,1,1,0,2,1,3,2,0,0,0,0,0
126,98255,48.52207,-121.9893,Hamilton,WA,Washington,236,184,Skagit,126102,567,16.0,1.0,0.0,234782.0,0,0,3,2,0,1,2,1,0,0,0,0,0,0
127,98256,47.82999,-121.43037,Index,WA,Washington,328,2,Snohomish,768219,3788,178.0,2.0,0.0,279018.0,0,0,0,0,0,0,0,0,0,0,0,0,0,0
128,98257,48.41605,-122.5095,La Conner,WA,Washington,4022,87,Skagit,126102,567,16.0,18.0,1.0,402464.0,0,0,0,0,0,1,1,0,0,0,0,0,0,0
129,98258,48.0424,-122.06897,Lake Stevens,WA,Washington,32959,409,Snohomish,768219,3788,178.0,163.0,8.0,454335.0,0,0,0,9,1,1,5,1,4,0,1,0,0,1
130,98260,48.03069,-122.45086,Langley,WA,Washington,5577,78,Island,81636,199,12.0,14.0,1.0,560282.0,0,0,0,2,0,3,1,3,2,0,0,0,0,0
131,98261,48.48381,-122.88303,Lopez Island,WA,Washington,2681,31,San Juan,16340,20,0.0,3.0,0.0,610914.0,2,1,0,0,0,0,2,1,1,0,0,0,0,1
132,98262,48.69276,-122.6638,Lummi Island,WA,Washington,847,41,Whatcom,214438,685,40.0,3.0,0.0,486470.0,0,0,0,4,0,0,1,0,0,0,0,1,0,0
133,98263,48.52191,-122.06700000000001,Lyman,WA,Washington,76,181,Skagit,126102,567,16.0,0.0,0.0,293897.0,0,0,2,1,0,0,1,2,1,0,0,0,0,0
134,98264,48.95015,-122.46035,Lynden,WA,Washington,20780,128,Whatcom,214438,685,40.0,66.0,4.0,425290.0,7,0,3,11,5,3,42,19,51,1,5,14,1,6
135,98266,48.95329,-122.12835,Maple Falls,WA,Washington,3993,59,Whatcom,214438,685,40.0,13.0,1.0,239538.0,0,0,0,0,0,0,0,1,0,0,0,0,0,0
136,98267,48.44343,-121.31629,Marblemount,WA,Washington,346,1,Skagit,126102,567,16.0,2.0,0.0,207792.0,0,0,0,0,0,0,0,1,0,0,0,0,0,0
137,98270,48.05957,-122.14452,Marysville,WA,Washington,50972,1239,Snohomish,768219,3788,178.0,251.0,12.0,419073.0,3,1,1,8,1,2,24,7,34,3,4,9,0,3
138,98271,48.09415,-122.23446000000001,Marysville,WA,Washington,28585,226,Snohomish,768219,3788,178.0,141.0,7.0,404048.0,0,0,0,1,1,0,1,0,4,0,0,1,0,0
139,98272,47.8493,-121.88519,Monroe,WA,Washington,31416,99,Snohomish,768219,3788,178.0,155.0,7.0,478116.0,0,0,0,6,0,0,2,0,2,1,0,0,0,0
140,98273,48.403940000000006,-122.36933,Mount Vernon,WA,Washington,30595,132,Skagit,126102,567,16.0,138.0,4.0,376733.0,0,0,1,1,0,0,1,2,1,0,1,0,0,2
141,98274,48.359359999999995,-122.14553000000001,Mount Vernon,WA,Washington,17636,46,Skagit,126102,567,16.0,79.0,2.0,419262.0,0,0,0,1,0,0,0,0,2,0,0,0,0,0
142,98275,47.91321,-122.29926,Mukilteo,WA,Washington,21264,1032,Snohomish,768219,3788,178.0,105.0,5.0,640485.0,2,0,7,18,2,14,60,29,42,7,8,15,2,4
143,98276,48.92702,-122.32606000000001,Nooksack,WA,Washington,660,852,Whatcom,214438,685,40.0,2.0,0.0,351043.0,1,0,2,6,0,1,9,8,13,0,1,5,0,2
144,98277,48.31625,-122.63161000000001,Oak Harbor,WA,Washington,38632,259,Island,81636,199,12.0,94.0,6.0,363760.0,2,0,5,8,1,6,26,15,42,0,3,8,2,6
145,98278,48.34131,-122.66288,Oak Harbor,WA,Washington,1731,79,Island,81636,199,12.0,4.0,0.0,,2,0,3,10,8,5,24,10,7,2,0,11,3,1
146,98279,48.644709999999996,-122.8083,Olga,WA,Washington,628,17,San Juan,16340,20,0.0,1.0,0.0,660627.0,0,0,0,6,0,1,6,0,0,0,0,1,0,1
147,98280,48.60693,-122.90961000000001,Orcas,WA,Washington,417,26,San Juan,16340,20,0.0,1.0,0.0,852035.0,0,0,0,3,0,0,0,0,0,0,0,0,0,0
148,98281,48.988170000000004,-123.05767,Point Roberts,WA,Washington,1191,104,Whatcom,214438,685,40.0,4.0,0.0,281435.0,0,0,2,2,0,2,8,5,7,0,0,2,0,0
149,98282,48.18657,-122.47075,Camano Island,WA,Washington,16427,153,Island,81636,199,12.0,40.0,2.0,515536.0,0,0,0,3,0,0,0,0,1,0,0,0,0,0
150,98283,48.80272,-121.25818999999998,Rockport,WA,Washington,403,1,Skagit,126102,567,16.0,2.0,0.0,263631.0,0,0,0,0,0,0,0,0,0,0,0,0,0,0
151,98284,48.55308,-122.12046000000001,Sedro Woolley,WA,Washington,26961,34,Skagit,126102,567,16.0,121.0,3.0,349616.0,0,0,0,0,0,0,0,0,0,0,0,0,0,0
152,98286,48.57262,-122.95711999999999,Shaw Island,WA,Washington,185,12,San Juan,16340,20,0.0,0.0,0.0,841729.0,0,0,0,5,0,0,3,0,0,0,0,0,0,1
153,98288,47.666000000000004,-121.27533999999999,Skykomish,WA,Washington,181,1,King,2175990,11284,628.0,1.0,0.0,312435.0,0,0,0,0,0,0,0,0,0,0,0,0,0,0
154,98290,47.95101,-121.98023,Snohomish,WA,Washington,35990,107,Snohomish,768219,3788,178.0,177.0,8.0,568162.0,0,0,0,3,0,0,2,0,3,0,0,0,0,0
155,98292,48.2234,-122.30731000000002,Stanwood,WA,Washington,22547,109,Snohomish,768219,3788,178.0,111.0,5.0,486564.0,0,0,2,0,0,0,1,1,1,0,0,2,0,0
156,98294,47.87618,-121.74479,Sultan,WA,Washington,7127,43,Snohomish,768219,3788,178.0,35.0,2.0,364285.0,2,0,1,2,0,0,7,2,1,0,0,1,0,2
157,98295,48.97181,-122.22851000000001,Sumas,WA,Washington,2733,33,Whatcom,214438,685,40.0,9.0,1.0,319736.0,0,0,0,0,0,0,0,0,0,0,0,0,0,0
158,98296,47.84066,-122.10166000000001,Snohomish,WA,Washington,30373,317,Snohomish,768219,3788,178.0,150.0,7.0,682057.0,1,1,1,6,0,1,13,9,26,2,0,9,1,1
159,98297,48.7005,-123.02833999999999,Waldron,WA,Washington,36,10,San Juan,16340,20,0.0,0.0,0.0,,0,0,0,0,0,0,1,0,0,0,0,0,0,0
160,98303,47.15783,-122.70387,Anderson Island,WA,Washington,1187,52,Pierce,851739,2932,111.0,4.0,0.0,340662.0,1,0,0,4,0,0,2,2,2,0,0,0,0,1
161,98304,46.86799,-121.75176,Ashford,WA,Washington,634,1,Pierce,851739,2932,111.0,2.0,0.0,206738.0,0,0,0,3,0,0,0,0,1,0,0,0,0,0
162,98305,48.0603,-124.43012,Beaver,WA,Washington,310,2,Clallam,76048,46,0.0,0.0,0.0,197663.0,0,0,0,0,0,0,0,0,0,0,0,0,0,0
163,98310,47.592690000000005,-122.62299999999999,Bremerton,WA,Washington,20934,1212,Kitsap,262475,261,2.0,21.0,0.0,339549.0,9,1,7,14,0,6,137,36,104,3,9,151,10,9
164,98311,47.63019,-122.63698000000001,Bremerton,WA,Washington,27856,921,Kitsap,262475,261,2.0,28.0,0.0,378881.0,3,0,4,13,7,3,34,22,49,9,10,10,1,5
165,98312,47.57326,-122.76008,Bremerton,WA,Washington,31330,190,Kitsap,262475,261,2.0,31.0,0.0,342868.0,0,0,0,0,0,0,0,0,1,0,0,0,0,0
166,98314,47.55594,-122.6387,Bremerton,WA,Washington,2353,2184,Kitsap,262475,261,2.0,2.0,0.0,,15,1,21,32,6,37,96,60,119,6,5,20,1,11
167,98315,47.72289,-122.71458999999999,Silverdale,WA,Washington,6336,211,Kitsap,262475,261,2.0,6.0,0.0,,0,0,0,3,0,0,5,1,0,0,0,2,0,0
168,98320,47.72074,-122.99144,Brinnon,WA,Washington,1128,5,Jefferson,29295,41,0.0,2.0,0.0,289131.0,0,0,0,0,0,0,0,0,0,0,0,0,0,0
169,98321,47.15286,-122.06432,Buckley,WA,Washington,15788,163,Pierce,851739,2932,111.0,54.0,2.0,450465.0,0,0,3,11,1,1,6,1,6,0,4,2,1,0
170,98323,47.040620000000004,-121.88815,Carbonado,WA,Washington,805,2,Pierce,851739,2932,111.0,3.0,0.0,357698.0,0,0,0,0,0,0,0,0,0,0,0,0,0,0
171,98325,47.96585,-122.77841000000001,Chimacum,WA,Washington,1474,24,Jefferson,29295,41,0.0,2.0,0.0,358971.0,0,0,0,0,0,1,1,0,2,0,0,1,0,0
172,98326,48.167790000000004,-124.38897,Clallam Bay,WA,Washington,657,2,Clallam,76048,46,0.0,0.0,0.0,165282.0,0,0,0,0,0,0,0,0,0,0,0,0,0,0
173,98327,47.10125,-122.66073,Dupont,WA,Washington,9431,467,Pierce,851739,2932,111.0,32.0,1.0,398690.0,9,0,1,13,1,4,19,13,24,5,2,6,0,3
174,98328,46.8658,-122.17374,Eatonville,WA,Washington,9637,19,Pierce,851739,2932,111.0,33.0,1.0,412707.0,0,0,0,0,0,0,0,0,0,0,0,0,0,0
175,98329,47.377829999999996,-122.72547,Gig Harbor,WA,Washington,11333,159,Pierce,851739,2932,111.0,39.0,1.0,412338.0,0,0,0,4,0,2,2,0,7,0,0,0,0,2
176,98330,46.77244,-122.16878,Elbe,WA,Washington,103,9,Pierce,851739,2932,111.0,0.0,0.0,269787.0,0,0,0,0,0,1,0,0,0,0,0,0,0,0
177,98331,47.78438,-124.18511000000001,Forks,WA,Washington,6503,4,Clallam,76048,46,0.0,4.0,0.0,220152.0,0,0,0,0,0,0,0,0,0,0,0,0,0,0
178,98332,47.365,-122.59886999999999,Gig Harbor,WA,Washington,18321,295,Pierce,851739,2932,111.0,63.0,2.0,620608.0,2,0,1,7,0,0,68,10,37,7,1,61,2,2
179,98333,47.24771,-122.62561000000001,Fox Island,WA,Washington,3692,271,Pierce,851739,2932,111.0,13.0,0.0,737843.0,1,0,1,4,0,1,4,1,4,0,0,0,0,2
180,98335,47.29895,-122.61891999999999,Gig Harbor,WA,Washington,25522,437,Pierce,851739,2932,111.0,88.0,3.0,603022.0,0,0,0,6,0,1,7,0,9,0,0,4,1,4
181,98336,46.56449,-122.11248,Glenoma,WA,Washington,786,6,Lewis,78320,79,3.0,1.0,0.0,227642.0,0,0,0,0,0,0,0,0,0,0,0,0,0,0
182,98337,47.56862,-122.6309,Bremerton,WA,Washington,7039,2492,Kitsap,262475,261,2.0,7.0,0.0,302138.0,10,0,21,36,12,30,124,59,116,4,5,133,10,14
183,98338,47.02052,-122.28323999999999,Graham,WA,Washington,27508,173,Pierce,851739,2932,111.0,95.0,4.0,415547.0,0,0,1,3,0,0,8,0,7,0,0,0,0,1
184,98339,48.01877,-122.74951999999999,Port Hadlock,WA,Washington,3141,224,Jefferson,29295,41,0.0,4.0,0.0,282210.0,2,0,4,4,0,0,8,6,12,0,0,4,1,1
185,98340,47.9023,-122.56348,Hansville,WA,Washington,2912,113,Kitsap,262475,261,2.0,3.0,0.0,526302.0,0,0,1,5,1,0,3,2,5,0,0,1,0,0
186,98342,47.75387,-122.51789,Indianola,WA,Washington,1363,221,Kitsap,262475,261,2.0,1.0,0.0,514284.0,1,0,0,4,0,0,6,0,3,0,0,0,0,1
187,98345,47.69921,-122.62351000000001,Keyport,WA,Washington,422,424,Kitsap,262475,261,2.0,0.0,0.0,451708.0,1,0,0,9,1,3,8,4,3,0,1,1,0,2
188,98346,47.8185,-122.53233999999999,Kingston,WA,Washington,10106,131,Kitsap,262475,261,2.0,10.0,0.0,489592.0,0,0,0,1,0,2,6,4,17,0,0,4,1,2
189,98349,47.26623,-122.77273000000001,Lakebay,WA,Washington,4346,84,Pierce,851739,2932,111.0,15.0,1.0,360720.0,0,0,0,4,0,0,5,1,8,0,0,1,0,0
190,98350,47.90531,-124.61396,La Push,WA,Washington,451,57,Clallam,76048,46,0.0,0.0,0.0,,0,0,0,6,0,2,4,1,0,0,1,1,0,1
191,98351,47.20301,-122.76868999999999,Longbranch,WA,Washington,1228,51,Pierce,851739,2932,111.0,4.0,0.0,415636.0,0,0,0,5,0,1,2,0,0,0,0,0,0,1
192,98353,47.53885,-122.49293999999999,Manchester,WA,Washington,46,2,Kitsap,262475,261,2.0,0.0,0.0,,1,0,0,5,0,1,0,0,1,0,0,0,0,0
193,98354,47.25027,-122.31468999999998,Milton,WA,Washington,7088,1123,Pierce,851739,2932,111.0,24.0,1.0,412698.0,1,0,5,10,1,3,30,19,69,5,6,14,1,11
194,98355,46.686890000000005,-122.05558,Mineral,WA,Washington,917,2,Lewis,78320,79,3.0,1.0,0.0,210273.0,0,0,0,0,0,0,0,0,0,0,0,0,0,0
195,98356,46.56342,-122.29218999999999,Morton,WA,Washington,2245,9,Lewis,78320,79,3.0,2.0,0.0,203666.0,1,0,1,6,0,5,6,7,8,0,1,2,1,3
196,98357,48.331990000000005,-124.62847,Neah Bay,WA,Washington,1645,13,Clallam,76048,46,0.0,1.0,0.0,,0,0,0,0,0,0,0,0,0,0,0,0,0,0
197,98358,48.055690000000006,-122.70761999999999,Nordland,WA,Washington,926,33,Jefferson,29295,41,0.0,1.0,0.0,568260.0,0,0,0,2,0,0,1,0,1,0,0,0,0,0
198,98359,47.43045,-122.57661,Olalla,WA,Washington,5002,135,Kitsap,262475,261,2.0,5.0,0.0,491415.0,0,1,0,3,0,0,7,0,5,0,0,1,0,1
199,98360,47.03026,-122.15928000000001,Orting,WA,Washington,13363,68,Pierce,851739,2932,111.0,46.0,2.0,390296.0,0,0,0,0,0,0,0,0,1,0,0,0,0,0
200,98361,46.58875,-121.59128,Packwood,WA,Washington,836,1,Lewis,78320,79,3.0,1.0,0.0,201991.0,0,0,0,0,0,0,0,0,0,0,0,0,0,0
201,98362,47.9842,-123.36164,Port Angeles,WA,Washington,23740,40,Clallam,76048,46,0.0,14.0,0.0,289760.0,0,0,0,0,0,0,0,0,0,0,0,0,0,0
202,98363,48.01057,-123.87551,Port Angeles,WA,Washington,14083,9,Clallam,76048,46,0.0,9.0,0.0,289132.0,0,0,0,0,0,0,0,0,0,0,0,0,0,0
203,98364,47.84697,-122.58838999999999,Port Gamble,WA,Washington,95,58,Kitsap,262475,261,2.0,0.0,0.0,,3,0,0,15,0,2,11,1,10,0,0,5,0,3
